{
  "Baden, Germany": {
    "display_name": "Baden, Achim, Landkreis Verden, Niedersachsen, Deutschland",
    "lat": 53.0023496,
    "lon": 9.0820955,
    "query": "Baden, Germany",
    "source": "nominatim"
  },
  "Bear Creek, Outagamie County, Wisconsin": {
    "display_name": "Bear Creek, Outagamie County, Wisconsin, United States",
    "lat": 44.5302735,
    "lon": -88.7272437,
    "query": "Bear Creek, Outagamie County, Wisconsin",
    "source": "nominatim"
  },
  "Beauvechain, Brabant, Belgium": {
    "display_name": "Beauvechain, Nivelles, Brabant wallon, Wallonie, 1320, België / Belgique / Belgien",
    "lat": 50.7808981,
    "lon": 4.7717304,
    "query": "Beauvechain, Brabant, Belgium",
    "source": "nominatim"
  },
  "Beauvechain, Brabant, Belgium (probable)": {
    "display_name": "Beauvechain, Nivelles, Brabant wallon, Wallonie, 1320, België / Belgique / Belgien",
    "lat": 50.7808981,
    "lon": 4.7717304,
    "query": "Beauvechain, Brabant, Belgium",
    "source": "nominatim"
  },
  "Belgium (probable Mélin area)": {
    "display_name": "België / Belgique / Belgien",
    "lat": 50.6402809,
    "lon": 4.6667145,
    "query": "Belgium",
    "source": "nominatim"
  },
  "Belgium (probable)": {
    "display_name": "België / Belgique / Belgien",
    "lat": 50.6402809,
    "lon": 4.6667145,
    "query": "Belgium",
    "source": "nominatim"
  },
  "Beloeil, Verchères, Quebec, Canada": {
    "display_name": "Beloeil, Vallée-du-Richelieu, Montérégie, Québec, Canada",
    "lat": 45.5667,
    "lon": -73.2,
    "note": "Beloeil city; Nominatim couldn't resolve historical Verchères subdivision",
    "source": "override"
  },
  "Benson, Cochise County, Arizona": {
    "display_name": "Benson, Cochise County, Arizona, United States",
    "lat": 31.9678611,
    "lon": -110.294517,
    "query": "Benson, Cochise County, Arizona",
    "source": "nominatim"
  },
  "Berthier, Montmagny, Quebec, Canada": {
    "display_name": "Berthier-sur-Mer, Montmagny (MRC), Chaudière-Appalaches, Québec, G0R 1E0, Canada",
    "lat": 46.9265054,
    "lon": -70.7312726,
    "query": "Berthier, Montmagny, Quebec, Canada",
    "source": "nominatim"
  },
  "Brown County, Wisconsin (approximate)": {
    "display_name": "Brown County, Wisconsin, United States",
    "lat": 44.4383498,
    "lon": -88.0167093,
    "query": "Brown County, Wisconsin",
    "source": "nominatim"
  },
  "Canada": {
    "display_name": "Canada",
    "lat": 61.0666922,
    "lon": -107.991707,
    "query": "Canada",
    "source": "nominatim"
  },
  "Chambly, Quebec, Canada": {
    "display_name": "Chambly, La Vallée-du-Richelieu, Montérégie, Québec, Canada",
    "lat": 45.4483467,
    "lon": -73.2936944,
    "query": "Chambly, Quebec, Canada",
    "source": "nominatim"
  },
  "Charlesbourg, Montmorency, Quebec, Canada": {
    "display_name": "Charlesbourg, Quebec City, Québec, Canada",
    "lat": 46.8612,
    "lon": -71.2772,
    "note": "Now a borough of Quebec City; historical Montmorency county",
    "source": "override"
  },
  "Cleveland, Le Sueur County, Minnesota": {
    "display_name": "Cleveland, Le Sueur County, Minnesota, United States",
    "lat": 44.3255219,
    "lon": -93.8377341,
    "query": "Cleveland, Le Sueur County, Minnesota",
    "source": "nominatim"
  },
  "Cordova Township, Le Sueur County, Minnesota": {
    "display_name": "Cordova Township, Le Sueur County, Minnesota, United States",
    "lat": 44.3263223,
    "lon": -93.7072944,
    "query": "Cordova Township, Le Sueur County, Minnesota",
    "source": "nominatim"
  },
  "Crooked Lake, Wisconsin": {
    "display_name": "Crooked Lake, Town of Riverview, Oconto County, Wisconsin, United States",
    "lat": 45.2452947,
    "lon": -88.3521873,
    "query": "Crooked Lake, Wisconsin",
    "source": "nominatim"
  },
  "De Pere, Brown County, Wisconsin": {
    "display_name": "De Pere, Brown County, Wisconsin, 54344, United States",
    "lat": 44.4493584,
    "lon": -88.0599986,
    "query": "De Pere, Brown County, Wisconsin",
    "source": "nominatim"
  },
  "Deer Creek, Outagamie County, Wisconsin": {
    "display_name": "Town of Deer Creek, Outagamie County, Wisconsin, United States",
    "lat": 44.5542272,
    "lon": -88.6765137,
    "query": "Deer Creek, Outagamie County, Wisconsin",
    "source": "nominatim"
  },
  "Duck Creek, Brown County, Wisconsin": {
    "display_name": "Duck Creek, Outagamie County, Wisconsin, United States",
    "lat": 44.4695086,
    "lon": -88.2188117,
    "query": "Duck Creek, Brown County, Wisconsin",
    "source": "nominatim"
  },
  "Dyckesville, Brown County, Wisconsin": {
    "display_name": "Dyckesville, Kewaunee County, Wisconsin, United States",
    "lat": 44.6517,
    "lon": -87.71,
    "note": "Actually in Kewaunee County, not Brown — small unincorporated community on Hwy 57",
    "source": "override"
  },
  "Elysian, Le Sueur County, Minnesota": {
    "display_name": "Elysian, Le Sueur County, Minnesota, United States",
    "lat": 44.1988205,
    "lon": -93.6733978,
    "query": "Elysian, Le Sueur County, Minnesota",
    "source": "nominatim"
  },
  "England": {
    "display_name": "England, United Kingdom",
    "lat": 52.5310214,
    "lon": -1.2649062,
    "query": "England",
    "source": "nominatim"
  },
  "Fall River, Bristol County, Massachusetts": {
    "display_name": "Fall River, Bristol County, Massachusetts, United States",
    "lat": 41.7010642,
    "lon": -71.1546367,
    "query": "Fall River, Bristol County, Massachusetts",
    "source": "nominatim"
  },
  "Fish Creek, Door County, Wisconsin": {
    "display_name": "Fish Creek, Town of Gibraltar, Door County, Wisconsin, 54212, United States",
    "lat": 45.1277686,
    "lon": -87.2467256,
    "query": "Fish Creek, Door County, Wisconsin",
    "source": "nominatim"
  },
  "Fond du Lac County, Wisconsin": {
    "display_name": "Fond du Lac County, Wisconsin, United States",
    "lat": 43.7533414,
    "lon": -88.4493796,
    "query": "Fond du Lac County, Wisconsin",
    "source": "nominatim"
  },
  "Fond du Lac, Fond du Lac County, Wisconsin": {
    "display_name": "Fond du Lac, Fond du Lac County, Wisconsin, United States",
    "lat": 43.7748763,
    "lon": -88.4458033,
    "query": "Fond du Lac, Fond du Lac County, Wisconsin",
    "source": "nominatim"
  },
  "Freeport, Stephenson County, Illinois": {
    "display_name": "Freeport, Stephenson County, Illinois, 61032, United States",
    "lat": 42.2966861,
    "lon": -89.6212271,
    "query": "Freeport, Stephenson County, Illinois",
    "source": "nominatim"
  },
  "Germany": {
    "display_name": "Deutschland",
    "lat": 51.1638175,
    "lon": 10.4478313,
    "query": "Germany",
    "source": "nominatim"
  },
  "Green Bay, Brown County, Wisconsin": {
    "display_name": "Green Bay, Brown County, Wisconsin, United States",
    "lat": 44.5126379,
    "lon": -88.0125794,
    "query": "Green Bay, Brown County, Wisconsin",
    "source": "nominatim"
  },
  "Greenlawn, Fairfield Township, Butler County, Ohio": {
    "display_name": "Greenlawn Road, Fairfield Township, Butler County, Ohio, 45011, United States",
    "lat": 39.4093326,
    "lon": -84.4843095,
    "query": "Greenlawn, Fairfield Township, Butler County, Ohio",
    "source": "nominatim"
  },
  "Hanover, Germany": {
    "display_name": "Hannover, Region Hannover, Niedersachsen, Deutschland",
    "lat": 52.3744779,
    "lon": 9.7385532,
    "query": "Hanover, Germany",
    "source": "nominatim"
  },
  "Hoegaarden, Flemish Brabant, Belgium": {
    "display_name": "Hoegaarden, Leuven, Vlaams-Brabant, Vlaanderen, België / Belgique / Belgien",
    "lat": 50.7741896,
    "lon": 4.8870343,
    "query": "Hoegaarden, Flemish Brabant, Belgium",
    "source": "nominatim"
  },
  "Iberville, Quebec, Canada": {
    "display_name": "Iberville, Saint-Jean-sur-Richelieu, Le Haut-Richelieu, Montérégie, Québec, Canada",
    "lat": 45.3039219,
    "lon": -73.2297415,
    "query": "Iberville, Quebec, Canada",
    "source": "nominatim"
  },
  "Joliet, Will County, Illinois": {
    "display_name": "Joliet, Will County, Illinois, United States",
    "lat": 41.5263603,
    "lon": -88.0840212,
    "query": "Joliet, Will County, Illinois",
    "source": "nominatim"
  },
  "Junction City, Lane County, Oregon": {
    "display_name": "Junction City, Lane County, Oregon, United States",
    "lat": 44.2191935,
    "lon": -123.204785,
    "query": "Junction City, Lane County, Oregon",
    "source": "nominatim"
  },
  "Kenosha, Kenosha County, Wisconsin": {
    "display_name": "Kenosha, Kenosha County, Wisconsin, United States",
    "lat": 42.5846773,
    "lon": -87.8212263,
    "query": "Kenosha, Kenosha County, Wisconsin",
    "source": "nominatim"
  },
  "L'Acadie, Quebec, Canada": {
    "display_name": "L'Acadie, Saint-Jean-sur-Richelieu, Le Haut-Richelieu, Montérégie, Québec, Canada",
    "lat": 45.3154444,
    "lon": -73.342359,
    "query": "L'Acadie, Quebec, Canada",
    "source": "nominatim"
  },
  "La Prairie, Montérégie, Quebec, Canada": {
    "display_name": "La Prairie, Roussillon, Montérégie, Québec, Canada",
    "lat": 45.4175472,
    "lon": -73.4891432,
    "query": "La Prairie, Montérégie, Quebec, Canada",
    "source": "nominatim"
  },
  "La Rochelle, Charente-Maritime, France": {
    "display_name": "La Rochelle, Charente-Maritime, Nouvelle-Aquitaine, France métropolitaine, 17000, France",
    "lat": 46.159732,
    "lon": -1.1515951,
    "query": "La Rochelle, Charente-Maritime, France",
    "source": "nominatim"
  },
  "Lexington Township, Le Sueur County, Minnesota": {
    "display_name": "Lexington Township, Le Sueur County, Minnesota, 56057, United States",
    "lat": 44.4277077,
    "lon": -93.7073056,
    "query": "Lexington Township, Le Sueur County, Minnesota",
    "source": "nominatim"
  },
  "Lexington, Le Sueur County, Minnesota": {
    "display_name": "Lexington, Lexington Township, Le Sueur County, Minnesota, 56057, United States",
    "lat": 44.4424645,
    "lon": -93.7024566,
    "query": "Lexington, Le Sueur County, Minnesota",
    "source": "nominatim"
  },
  "Lorraine, France": {
    "display_name": "Grand Est, France métropolitaine, France",
    "lat": 48.4845157,
    "lon": 6.113035,
    "query": "Lorraine, France",
    "source": "nominatim"
  },
  "Malone, Franklin County, New York": {
    "display_name": "Village of Malone, Town of Malone, Franklin County, New York, United States",
    "lat": 44.84881,
    "lon": -74.295044,
    "query": "Malone, Franklin County, New York",
    "source": "nominatim"
  },
  "Maple Creek, Outagamie County, Wisconsin": {
    "display_name": "Town of Maple Creek, Outagamie County, Wisconsin, United States",
    "lat": 44.4562201,
    "lon": -88.7016755,
    "query": "Maple Creek, Outagamie County, Wisconsin",
    "source": "nominatim"
  },
  "Montmorency, Quebec, Canada": {
    "display_name": "Montmorency (historical county), near Quebec City, Québec, Canada",
    "lat": 46.8853,
    "lon": -71.15,
    "note": "Nominatim incorrectly matched 'Montmorency' in Laval; corrected to historical county near Quebec City",
    "source": "override"
  },
  "Montreal, Quebec, Canada": {
    "display_name": "Montréal, Agglomération de Montréal, Montréal (région administrative), Québec, Canada",
    "lat": 45.5031824,
    "lon": -73.5698065,
    "query": "Montreal, Quebec, Canada",
    "source": "nominatim"
  },
  "Mélin, Brabant Wallon, Belgium": {
    "display_name": "Mélin, Jodoigne, Nivelles, Brabant wallon, Wallonie, 1370, België / Belgique / Belgien",
    "lat": 50.7401063,
    "lon": 4.8286491,
    "query": "Mélin, Brabant Wallon, Belgium",
    "source": "nominatim"
  },
  "Mélin, Brabant, Belgium": {
    "display_name": "Mélin, Jodoigne, Nivelles, Brabant wallon, Wallonie, 1370, België / Belgique / Belgien",
    "lat": 50.7401063,
    "lon": 4.8286491,
    "query": "Mélin, Brabant, Belgium",
    "source": "nominatim"
  },
  "Mélin, Brabant, Belgium (probable)": {
    "display_name": "Mélin, Jodoigne, Nivelles, Brabant wallon, Wallonie, 1370, België / Belgique / Belgien",
    "lat": 50.7401063,
    "lon": 4.8286491,
    "query": "Mélin, Brabant, Belgium",
    "source": "nominatim"
  },
  "New London area, Waupaca County, Wisconsin (probable)": {
    "display_name": "New London, Waupaca County, Wisconsin, United States",
    "lat": 44.3929,
    "lon": -88.7352,
    "note": "Approximate — same coords as New London, Outagamie County (city straddles county line)",
    "source": "override"
  },
  "New London, Outagamie County, Wisconsin": {
    "display_name": "New London Park, New London, Outagamie County, Wisconsin, United States",
    "lat": 44.3929214,
    "lon": -88.7352076,
    "query": "New London, Outagamie County, Wisconsin",
    "source": "nominatim"
  },
  "Oconto, Oconto County, Wisconsin": {
    "display_name": "Oconto, Oconto County, Wisconsin, 54153, United States",
    "lat": 44.8880199,
    "lon": -87.8696182,
    "query": "Oconto, Oconto County, Wisconsin",
    "source": "nominatim"
  },
  "Outagamie County, Wisconsin": {
    "display_name": "Outagamie County, Wisconsin, United States",
    "lat": 44.41603,
    "lon": -88.4602005,
    "query": "Outagamie County, Wisconsin",
    "source": "nominatim"
  },
  "Plattsburgh, Clinton County, New York": {
    "display_name": "City of Plattsburgh, Clinton County, New York, United States",
    "lat": 44.6960855,
    "lon": -73.4542915,
    "query": "Plattsburgh, Clinton County, New York",
    "source": "nominatim"
  },
  "Québec City, Quebec, Canada": {
    "display_name": "Québec, Agglomération de Québec, Capitale-Nationale, Québec, Canada",
    "lat": 46.8137431,
    "lon": -71.2084061,
    "query": "Québec City, Quebec, Canada",
    "source": "nominatim"
  },
  "Québec, Canada": {
    "display_name": "Québec City (assumed), Québec, Canada",
    "lat": 46.8139,
    "lon": -71.208,
    "note": "Generic 'Québec' — defaulting to Quebec City as historical reference",
    "source": "override"
  },
  "Red River, Kewaunee County, Wisconsin": {
    "display_name": "Town of Red River, Kewaunee County, Wisconsin, United States",
    "lat": 44.639331,
    "lon": -87.7021927,
    "query": "Red River, Kewaunee County, Wisconsin",
    "source": "nominatim"
  },
  "Richelieu, Quebec, Canada": {
    "display_name": "Richelieu, Rouville, Montérégie, Québec, Canada",
    "lat": 45.4439193,
    "lon": -73.2488055,
    "query": "Richelieu, Quebec, Canada",
    "source": "nominatim"
  },
  "Rivière-du-Sud, Montmagny, Quebec, Canada": {
    "display_name": "Rivière du Sud, Bellechasse, Chaudière-Appalaches, Québec, Canada",
    "lat": 46.7331709,
    "lon": -70.5693528,
    "query": "Rivière-du-Sud, Montmagny, Quebec, Canada",
    "source": "nominatim"
  },
  "Rouen, Seine-Maritime, Normandy, France": {
    "display_name": "Rouen, Seine-Maritime, Normandie, France métropolitaine, France",
    "lat": 49.4404591,
    "lon": 1.0939658,
    "query": "Rouen, Seine-Maritime, Normandy, France",
    "source": "nominatim"
  },
  "St Antoine de Padoue, Longueuil, Chambly, Quebec, Canada": {
    "display_name": "Saint-Antoine-de-Padoue parish, Longueuil, Québec, Canada",
    "lat": 45.5378,
    "lon": -73.5118,
    "note": "Historical parish; coords centered on Longueuil",
    "source": "override"
  },
  "St Athanase d'Iberville, Quebec, Canada": {
    "display_name": "Saint-Athanase, Iberville, Québec, Canada",
    "lat": 45.3037,
    "lon": -73.23,
    "note": "Historical parish in what is now Saint-Jean-sur-Richelieu",
    "source": "override"
  },
  "St Athanase sur Richelieu, Quebec, Canada": {
    "display_name": "Petro-Canada, Avenue Conrad-Gosselin, Saint-Athanase, Saint-Jean-sur-Richelieu, Le Haut-Richelieu, Montérégie, Québec, J3B 1W5, Canada",
    "lat": 45.3246278,
    "lon": -73.2475922,
    "query": "St Athanase sur Richelieu, Quebec, Canada",
    "source": "nominatim"
  },
  "St Luc, St Jean, Québec, Canada": {
    "display_name": "Saint-Luc, Saint-Jean-sur-Richelieu, Le Haut-Richelieu, Montérégie, Québec, Canada",
    "lat": 45.3621422,
    "lon": -73.3036849,
    "query": "St Luc, St Jean, Québec, Canada",
    "source": "nominatim"
  },
  "Sturgeon Bay, Door County, Wisconsin": {
    "display_name": "Sturgeon Bay, Door County, Wisconsin, 54235, United States",
    "lat": 44.8341639,
    "lon": -87.377042,
    "query": "Sturgeon Bay, Door County, Wisconsin",
    "source": "nominatim"
  },
  "Trhanov, Bohemia": {
    "display_name": "Trhanov, okres Domažlice, Plzeňský kraj, Czechia",
    "lat": 49.4237,
    "lon": 12.842,
    "note": "Krumpos origin village (~5 km from Domažlice), Chodsko region; Nominatim doesn't resolve historical 'Bohemia'",
    "source": "override"
  },
  "Wingham, Kent, England": {
    "display_name": "Wingham, Dover, Kent, England, United Kingdom",
    "lat": 51.272594,
    "lon": 1.2154292,
    "query": "Wingham, Kent, England",
    "source": "nominatim"
  },
  "Wisconsin": {
    "display_name": "Wisconsin, United States",
    "lat": 44.4308975,
    "lon": -89.6884637,
    "query": "Wisconsin",
    "source": "nominatim"
  }
}